City_ID,City,Lat,Lng,Max Temp,Humidity,Cloudiness,Wind Speed,Country,Date
0,susuman,62.7833,148.1667,239.25,99,100,0.89,RU,1707523721
1,adamstown,-25.066,-130.1015,298.44,90,100,10.85,PN,1707523722
2,wailua homesteads,22.0669,-159.378,298.59,69,40,4.63,US,1707523722
3,port mathurin,-19.6833,63.4167,299.88,79,94,11.91,MU,1707523722
4,iqaluit,63.7506,-68.5145,241.09,86,13,3.54,CA,1707523723
5,west island,-12.1568,96.8225,301.14,78,59,5.14,CC,1707523528
6,novhorodka,48.3651,32.6578,276.28,96,100,2.93,UA,1707523723
7,port-aux-francais,-49.35,70.2167,281.07,96,76,13.33,TF,1707523723
8,karratha,-20.7377,116.8463,306.4,42,3,4.18,AU,1707523723
9,port elizabeth,-33.918,25.5701,292.09,79,44,1.79,ZA,1707523724
10,petropavlovsk-kamchatsky,53.0452,158.6483,260.48,80,75,5.0,RU,1707523724
11,waitangi,-43.9535,-176.5597,290.83,70,12,9.87,NZ,1707523721
12,new norfolk,-42.7826,147.0587,291.88,38,1,1.14,AU,1707523724
13,sijunjung,-0.6876,100.9537,295.31,100,100,0.9,ID,1707523724
14,lihue,21.9789,-159.3672,298.92,69,40,4.63,US,1707523470
15,papatowai,-46.5619,169.4708,283.12,99,93,2.79,NZ,1707523725
16,ushuaia,-54.8,-68.3,284.96,62,20,6.69,AR,1707523725
17,fort mcmurray,56.7268,-111.381,263.63,86,100,0.43,CA,1707523725
18,ruayer,43.0537,-5.5502,280.87,98,100,1.92,ES,1707523725
19,grytviken,-54.2811,-36.5092,277.67,97,100,5.38,GS,1707523725
20,vorkuta,67.5,64.0,250.37,90,66,6.5,RU,1707523726
21,olonkinbyen,70.9221,-8.7187,270.06,62,8,3.48,SJ,1707523726
22,edinburgh of the seven seas,-37.0676,-12.3116,292.89,94,99,10.64,SH,1707523726
23,bumba,2.1833,22.4667,297.85,47,70,0.9,CD,1707523726
24,margaret river,-33.95,115.0667,299.64,36,0,2.72,AU,1707523726
25,pechora,65.1472,57.2244,254.18,99,61,2.24,RU,1707523727
26,albany,42.6001,-73.9662,282.38,69,35,1.75,US,1707523727
27,yung shue wan,22.2333,114.1167,286.27,73,100,0.89,HK,1707523727
28,al ghayzah,16.2079,52.176,295.09,70,0,1.6,YE,1707523727
29,jamestown,42.097,-79.2353,286.49,61,0,3.6,US,1707523624
30,avarua,-21.2078,-159.775,302.18,74,75,8.23,CK,1707523728
31,callao,-12.0667,-77.15,302.44,69,0,5.66,PE,1707523587
32,el dorado,38.7666,-120.5177,280.72,87,94,1.68,US,1707523728
33,wynyard,-41.0,145.7167,288.52,53,100,4.23,AU,1707523728
34,dawson creek,55.7666,-120.2362,268.28,82,44,1.28,CA,1707523728
35,grand falls-windsor,48.9332,-55.6649,260.98,100,48,1.29,CA,1707523729
36,labasa,-16.4167,179.3833,300.8,89,100,2.24,FJ,1707523729
37,newport,51.5877,-2.9984,281.45,95,89,2.56,GB,1707523579
38,vilyuysk,63.7553,121.6247,242.04,100,100,0.45,RU,1707523729
39,saipan,15.1355,145.701,301.54,65,40,10.29,MP,1707523564
40,porto novo,6.4965,2.6036,301.05,83,35,2.28,BJ,1707523519
41,puerto natales,-51.7236,-72.4875,286.33,85,38,1.69,CL,1707523730
42,vorgashor,67.5833,63.95,250.13,91,66,7.45,RU,1707523730
43,guerrero negro,27.9769,-114.0611,288.6,57,58,8.4,MX,1707523461
44,luanda,-8.8368,13.2343,300.32,83,80,5.25,AO,1707523730
45,manokwari,-0.8667,134.0833,301.16,73,100,3.09,ID,1707523445
46,coahuayana de hidalgo,18.7,-103.6583,298.74,62,15,2.32,MX,1707523731
47,whitehorse,60.7161,-135.0538,266.49,82,100,12.07,CA,1707523731
48,rio grande,-32.035,-52.0986,299.23,92,21,7.8,BR,1707523731
49,san juan bautista,-14.0108,-75.7358,300.81,58,56,4.27,PE,1707523731
50,atafu village,-8.5421,-172.5159,302.64,73,88,6.28,TK,1707523731
51,longyearbyen,78.2186,15.6401,268.06,68,40,9.26,SJ,1707523732
52,hermanus,-34.4187,19.2345,288.6,80,79,2.15,ZA,1707523732
53,vilyuchinsk,52.9306,158.4028,261.3,80,20,3.15,RU,1707523732
54,codrington,-38.2667,141.9667,291.06,65,37,5.54,AU,1707523732
55,mezhdurechensk,53.6942,88.0603,276.24,98,100,6.39,RU,1707523732
56,sechura,-5.5569,-80.8222,301.23,70,47,6.59,PE,1707523733
57,assab,13.0092,42.7394,298.35,81,3,11.56,ER,1707523733
58,aioun,16.6614,-9.6149,296.9,9,0,3.95,MR,1707523733
59,santo antonio do ica,-3.1022,-67.9397,299.11,93,100,0.38,BR,1707523733
60,formosa do rio preto,-11.0483,-45.1931,295.53,97,88,1.27,BR,1707523733
61,sandnessjoen,66.0217,12.6316,265.44,74,100,6.71,NO,1707523734
62,santa cruz,-17.8,-63.1667,296.85,94,75,3.6,BO,1707523734
63,carroll,39.5501,-77.0164,285.33,64,0,2.24,US,1707523734
64,anse-bertrand,16.4721,-61.5078,296.05,100,23,4.03,GP,1707523734
65,puerto ayora,-0.7393,-90.3518,302.13,93,69,0.89,EC,1707523734
66,oberstdorf,47.4,10.2833,279.18,91,100,0.89,DE,1707523735
67,las tablas,7.7667,-80.2833,297.69,99,17,9.73,PA,1707523517
68,kone,-21.0595,164.8658,303.28,60,30,3.71,NC,1707523735
69,ishigaki,24.3448,124.1572,290.3,68,100,10.32,JP,1707523735
70,kidal,18.4411,1.4078,292.49,10,48,1.4,ML,1707523735
71,pangody,65.85,74.4859,257.04,96,100,5.95,RU,1707523735
72,alofi,-19.0595,-169.9187,303.09,74,75,5.14,NU,1707523563
73,yellowknife,62.456,-114.3525,255.44,78,40,3.6,CA,1707523445
74,toliara,-23.35,43.6667,301.69,71,6,0.86,MG,1707523736
75,uturoa,-16.7333,-151.4333,298.84,93,100,6.02,PF,1707523736
76,georgetown,5.4112,100.3354,299.11,69,20,1.54,MY,1707523736
77,ancud,-41.8697,-73.8203,288.02,76,29,0.23,CL,1707523737
78,juneau,58.3019,-134.4197,274.15,95,100,8.23,US,1707523737
79,namerikawa,36.7667,137.3333,281.42,52,28,2.12,JP,1707523737
80,lionel town,17.8101,-77.2406,300.09,74,3,2.89,JM,1707523737
81,salekhard,66.53,66.6019,251.03,86,61,8.94,RU,1707523737
82,tonnerre,47.8563,3.9737,281.43,94,83,2.71,FR,1707523738
83,bredasdorp,-34.5322,20.0403,290.26,76,51,2.68,ZA,1707523738
84,najran,17.4924,44.1277,286.51,50,1,0.57,SA,1707523738
85,bomdila,27.25,92.4,276.06,65,1,2.75,IN,1707523738
86,blackmans bay,-43.0167,147.3167,291.22,50,28,0.45,AU,1707523738
87,minas de marcona,-15.2119,-75.1103,293.94,75,7,6.15,PE,1707523739
88,chonchi,-42.6128,-73.8092,291.71,90,72,1.61,CL,1707523739
89,hakui,36.8833,136.7833,281.38,73,65,5.85,JP,1707523739
90,qaqortoq,60.7167,-46.0333,262.01,66,100,4.27,GL,1707523739
91,college,64.8569,-147.8028,269.15,71,75,0.0,US,1707523739
92,queenstown,-31.8976,26.8753,288.89,81,84,2.25,ZA,1707523739
93,hadibu,12.65,54.0333,297.65,74,97,5.25,YE,1707523740
94,stanley,54.868,-1.6985,279.0,88,100,1.32,GB,1707523740
95,kuqa,41.7278,82.9364,271.0,55,83,1.14,CN,1707523740
96,cameron,26.117,-97.5169,298.21,80,20,7.2,US,1707523740
97,taoudenni,22.6783,-3.9836,295.28,9,81,2.81,ML,1707523741
98,hamilton,39.1834,-84.5333,288.04,76,0,4.12,US,1707523519
99,nemuro,43.3236,145.575,269.24,81,100,0.97,JP,1707523741
100,neder holluf,55.3645,10.4482,273.59,99,100,9.59,DK,1707523741
101,smithers,54.7804,-127.1743,268.33,74,100,2.57,CA,1707523539
102,mount isa,-20.7333,139.5,304.02,58,26,3.09,AU,1707523742
103,st. john's,47.5649,-52.7093,271.3,94,100,7.2,CA,1707523529
104,ilulissat,69.2167,-51.1,259.16,47,40,5.66,GL,1707523742
105,pokhvistnevo,53.6524,52.1274,253.01,100,92,2.32,RU,1707523742
106,santiago de cao,-7.9589,-79.2392,298.22,83,40,4.63,PE,1707523743
107,bilibino,68.0546,166.4372,252.5,91,100,2.54,RU,1707523743
108,thompson,55.7435,-97.8558,255.39,99,100,1.5,CA,1707523743
109,utrik,11.2278,169.8474,299.26,80,100,10.52,MH,1707523743
110,east london,-33.0153,27.9116,293.42,60,73,5.97,ZA,1707523743
111,sitka,57.0531,-135.33,279.09,70,100,9.77,US,1707523744
112,nhandeara,-20.6942,-50.0383,299.27,54,99,0.46,BR,1707523744
113,tazovsky,67.4667,78.7,256.71,96,100,5.25,RU,1707523744
114,inarajan village,13.2736,144.7484,302.69,81,100,7.33,GU,1707523745
115,xilin hot,43.9667,116.0333,250.17,96,13,3.1,CN,1707523745
116,vernon,50.2581,-119.2691,278.49,54,67,0.41,CA,1707523745
117,badger,64.8,-147.5333,269.1,77,75,0.0,US,1707523745
118,fisterra,42.9049,-9.2629,283.57,60,82,9.51,ES,1707523745
119,aasiaat,68.7098,-52.8699,257.87,74,100,9.22,GL,1707523746
120,kavaratti,10.5669,72.642,300.82,74,57,2.52,IN,1707523746
121,harper,4.375,-7.7169,298.44,93,1,1.23,LR,1707523746
122,gadzhiyevo,69.2551,33.3362,258.01,91,100,2.7,RU,1707523746
123,mega,4.05,38.3,292.11,49,20,5.32,ET,1707523746
124,kudahuvadhoo,2.6708,72.8944,300.72,73,98,7.01,MV,1707523747
125,valparaiso,-33.0393,-71.6273,294.53,61,0,2.57,CL,1707523747
126,tolanaro,-25.0319,46.9987,297.52,88,4,5.93,MG,1707523747
127,penzance,50.1186,-5.5371,282.53,76,64,9.6,GB,1707523747
128,mejit,10.2753,170.8646,299.44,82,100,12.1,MH,1707523747
129,menfi,37.6066,12.9678,289.31,66,98,6.01,IT,1707523748
130,clarkston,33.8096,-84.2396,288.83,73,0,0.0,US,1707523748
131,bethel,41.3712,-73.414,280.8,78,30,1.74,US,1707523748
132,karaidel',55.8337,56.9069,254.04,99,100,2.77,RU,1707523748
133,celestun,20.8667,-90.4,298.79,66,5,4.34,MX,1707523749
134,talnakh,69.4865,88.3972,247.57,78,71,2.36,RU,1707523749
135,kerikeri,-35.2268,173.9474,300.32,77,100,2.93,NZ,1707523749
136,kapa'a,22.0752,-159.319,299.33,69,40,4.63,US,1707523749
137,punta arenas,-53.15,-70.9167,287.1,62,100,4.02,CL,1707523750
138,iskateley,67.6803,53.1512,253.72,90,61,5.36,RU,1707523750
139,vadso,70.0744,29.7487,261.24,85,75,4.12,NO,1707523750
140,beberibe,-4.1797,-38.1306,300.6,82,70,5.86,BR,1707523677
141,haiku-pauwela,20.9219,-156.3051,300.16,66,40,4.63,US,1707523751
142,machico,32.7,-16.7667,292.5,73,20,2.57,PT,1707523751
143,arraial do cabo,-22.9661,-42.0278,297.55,78,66,4.59,BR,1707523751
144,ribeira grande,38.5167,-28.7,286.91,95,100,5.36,PT,1707523751
145,waddan,29.1614,16.139,287.51,24,6,4.14,LY,1707523752
146,morehead city,34.7229,-76.726,285.38,86,0,4.63,US,1707523752
147,la passe,45.5549,-0.8967,284.28,95,100,4.29,FR,1707523752
148,caleta de carquin,-11.0925,-77.6267,298.96,78,52,3.99,PE,1707523752
149,rabo de peixe,37.8,-25.5833,287.88,82,20,0.51,PT,1707523752
150,mukdahan,16.5833,104.5,288.88,75,94,5.38,TH,1707523753
151,qulsary,46.9531,54.0198,271.59,86,100,4.3,KZ,1707523753
152,kasaragod,12.5,75.0,295.81,89,43,2.08,IN,1707523753
153,port victoria,0.0939,33.9756,296.78,64,100,0.94,KE,1707523753
154,ola,59.5833,151.2833,246.55,82,24,3.3,RU,1707523754
155,kargasok,59.0556,80.8572,268.69,87,100,5.36,RU,1707523754
156,cockburn town,21.4612,-71.1419,296.13,60,40,5.66,TC,1707523584
157,mumford,5.2618,-0.759,298.13,93,29,1.79,GH,1707523754
158,glace bay,46.1969,-59.957,269.14,93,8,0.89,CA,1707523755
159,guiuan,11.0333,125.7247,300.19,74,24,7.96,PH,1707523755
160,castillos,-34.1667,-53.8333,296.3,88,91,8.85,UY,1707523755
161,sesheke,-17.4759,24.2968,294.08,69,5,0.55,ZM,1707523755
162,chibougamau,49.9168,-74.3659,274.94,93,100,4.12,CA,1707523756
163,takoradi,4.8845,-1.7554,298.7,89,5,1.13,GH,1707523756
164,saldanha,-33.0117,17.9442,291.4,83,0,6.83,ZA,1707523756
165,invercargill,-46.4,168.35,284.83,88,99,5.36,NZ,1707523756
166,klyuchi,52.2667,79.1667,277.57,71,100,12.3,RU,1707523757
167,mana,5.6592,-53.7767,299.39,82,27,4.51,GF,1707523757
168,keflavik,64.0049,-22.5624,268.39,74,0,5.66,IS,1707523757
169,kharagpur,22.3333,87.3333,286.66,39,4,2.4,IN,1707523757
170,bankim,6.083,11.4905,295.88,27,4,1.27,CM,1707523757
171,malvik,63.4333,10.6833,262.87,79,4,5.14,NO,1707523758
172,isafjordur,66.0755,-23.124,266.6,78,99,2.43,IS,1707523758
173,medenine,33.355,10.5055,290.39,22,98,5.22,TN,1707523758
174,makhambet,47.6667,51.5833,270.94,97,100,4.81,KZ,1707523758
175,weno,7.4515,151.8468,303.12,74,75,4.63,FM,1707523759
176,lebu,-37.6167,-73.65,287.62,88,53,4.37,CL,1707523759
177,barra de santo antonio,-9.4047,-35.5072,300.75,79,68,3.87,BR,1707523759
178,galliano,29.4422,-90.2992,295.37,84,59,2.67,US,1707523759
179,afaahiti,-17.75,-149.2833,300.96,80,99,2.91,PF,1707523760
180,tiksi,71.6872,128.8694,249.21,100,100,1.96,RU,1707523760
181,kuraymah,18.55,31.85,291.16,21,18,4.31,SD,1707523760
182,bata,1.8639,9.7658,300.19,82,93,2.42,GQ,1707523760
183,kamaishi,39.2667,141.8833,276.05,67,67,0.52,JP,1707523760
184,banda aceh,5.5577,95.3222,301.89,72,63,9.19,ID,1707523761
185,howard springs,-12.497,131.047,303.1,79,90,2.72,AU,1707523761
186,nizhniy kuranakh,58.8353,125.4869,244.28,100,90,0.28,RU,1707523761
187,carnarvon,-24.8667,113.6333,299.0,73,0,5.06,AU,1707523761
188,payyannur,12.1,75.2,298.18,82,9,3.52,IN,1707523704
189,lambunao,11.0556,122.4759,298.04,79,56,4.41,PH,1707523762
190,san patricio,28.017,-97.5169,296.2,78,100,5.35,US,1707523762
191,gaiman,-43.2897,-65.4929,297.55,28,50,7.28,AR,1707523762
192,port saint john's,-31.6229,29.5448,293.61,95,100,3.34,ZA,1707523762
193,chefchaouene,35.1688,-5.2636,282.55,96,98,5.19,MA,1707523763
194,kaitong,44.8135,123.15,257.75,92,8,1.69,CN,1707523763
195,hithadhoo,-0.6,73.0833,301.56,67,84,6.46,MV,1707523763
196,tura,25.5198,90.2201,285.0,59,0,2.14,IN,1707523763
197,pacasmayo,-7.4006,-79.5714,299.02,80,16,6.12,PE,1707523764
198,kingston,17.997,-76.7936,299.68,69,20,5.14,JM,1707523465
199,taltal,-25.4,-70.4833,295.72,78,23,1.9,CL,1707523764
200,beaufort west,-32.3567,22.583,290.23,67,3,3.44,ZA,1707523764
201,vila franca do campo,37.7167,-25.4333,288.38,86,100,1.01,PT,1707523764
202,kyren,51.6828,102.1408,260.9,81,72,1.34,RU,1707523765
203,kasempa,-13.4584,25.8338,293.85,76,70,1.96,ZM,1707523765
204,falaise,48.8922,-0.1953,282.66,93,99,5.56,FR,1707523765
205,kalmunai,7.4167,81.8167,299.07,77,99,4.64,LK,1707523765
206,wanning,18.8003,110.3967,288.0,89,100,1.69,CN,1707523766
207,rongelap,11.1635,166.8941,299.31,79,100,9.88,MH,1707523766
208,hawaiian paradise park,19.5933,-154.9731,298.17,77,100,2.57,US,1707523766
209,sosnogorsk,63.6023,53.8817,254.25,100,100,2.82,RU,1707523766
210,christchurch,-43.5333,172.6333,295.64,48,82,5.14,NZ,1707523766
211,isoka,-10.1606,32.6335,291.4,93,99,0.37,ZM,1707523767
212,ulladulla,-35.35,150.4667,289.73,91,81,1.3,AU,1707523767
213,nabire,-3.3667,135.4833,302.09,74,82,0.54,ID,1707523767
214,tvoroyri,61.5556,-6.8111,278.0,57,100,9.19,FO,1707523582
215,primero de mayo,-32.2552,-58.4228,297.34,77,77,4.03,AR,1707523767
216,tabou,4.423,-7.3528,299.78,87,0,2.37,CI,1707523768
217,sola,-13.8833,167.55,301.37,82,74,11.7,VU,1707523768
218,sabana iglesia,19.3211,-70.7599,292.55,83,20,1.54,DO,1707523768
219,broome,42.2506,-75.833,284.37,70,0,3.6,US,1707523768
220,pariaman,-0.619,100.12,299.18,86,100,2.84,ID,1707523768
221,touros,-5.1989,-35.4608,300.36,81,66,5.57,BR,1707523769
222,puerto deseado,-47.7503,-65.8938,289.34,56,0,6.93,AR,1707523769
223,mount gambier,-37.8333,140.7667,292.25,47,27,4.74,AU,1707523769
224,dudinka,69.4058,86.1778,249.64,87,98,2.68,RU,1707523770
225,lansing,42.7325,-84.5555,286.09,56,0,6.69,US,1707523528
226,pisco,-13.7,-76.2167,298.18,88,0,7.72,PE,1707523770
227,kovdor,67.5662,30.4758,252.86,98,100,0.42,RU,1707523770
228,pacific grove,36.6177,-121.9166,288.45,72,40,4.92,US,1707523770
229,makushino,55.2103,67.2442,257.09,92,58,4.81,RU,1707523771
230,kourou,5.1552,-52.6478,300.18,90,66,3.68,GF,1707523771
231,bairnsdale,-37.8333,147.6167,294.85,66,41,2.24,AU,1707523771
232,san luis de la loma,17.2706,-100.8939,299.99,63,3,3.77,MX,1707523771
233,yaren,-0.5472,166.916,302.1,75,89,6.65,NR,1707523772
234,port lincoln,-34.7333,135.8667,294.93,61,3,7.44,AU,1707523772
235,ceres,37.5949,-120.9577,286.37,63,0,5.14,US,1707523772
236,fale old settlement,-9.3852,-171.2468,301.82,77,100,6.55,TK,1707523773
237,revda,56.801,59.9303,254.96,93,100,4.77,RU,1707523773
238,cabo san lucas,22.8909,-109.9124,294.68,66,100,1.03,MX,1707523532
239,sanctuary point,-35.1114,150.629,296.66,73,75,3.04,AU,1707523777
240,la'ie,21.6477,-157.9253,301.13,71,43,4.02,US,1707523778
241,maddela,16.3414,121.6849,293.92,96,100,1.32,PH,1707523779
242,skikda,36.8762,6.9092,290.83,40,100,15.72,DZ,1707523779
243,anadyr,64.75,177.4833,255.43,84,20,5.81,RU,1707523779
244,qarazhal,48.0078,70.7903,273.89,85,92,6.88,KZ,1707523779
245,lauro de freitas,-12.8944,-38.3272,301.16,83,0,5.14,BR,1707523779
246,vargashi,55.3556,65.8467,257.52,96,77,4.65,RU,1707523780
247,san antonio de pale,-1.4014,5.6325,301.05,76,58,1.69,GQ,1707523780
248,colonia,50.9333,6.95,285.14,90,20,3.6,DE,1707523616
249,moraleja,40.0162,-6.6977,282.4,87,91,4.62,ES,1707523780
250,happy valley-goose bay,53.3168,-60.3315,268.69,97,89,1.39,CA,1707523781
251,nuuk,64.1835,-51.7216,261.49,67,100,3.6,GL,1707523542
252,acapulco de juarez,16.8634,-99.8901,302.05,61,75,4.12,MX,1707523522
253,itaituba,-4.2761,-55.9836,298.37,96,99,0.81,BR,1707523781
254,ixtapa,20.7,-105.2,298.28,65,100,3.09,MX,1707523781
255,monteagudo,-19.8167,-63.9833,293.55,98,100,1.28,BO,1707523791
256,bonthe,7.5264,-12.505,299.62,86,87,1.95,SL,1707523792
257,khilok,51.3674,110.4676,254.27,99,82,0.9,RU,1707523792
258,yarmouth,41.7057,-70.2286,277.6,90,100,3.6,US,1707523792
259,sao vicente,-23.9631,-46.3919,302.19,26,93,0.45,BR,1707523792
260,ust-nera,64.5667,143.2,238.87,100,100,0.19,RU,1707523793
261,ha'il,27.5219,41.6907,286.16,76,40,2.06,SA,1707523793
262,saryaghash,41.45,69.1667,280.11,45,100,2.95,KZ,1707523793
263,al artawiyah,26.5053,45.3444,288.77,37,100,6.73,SA,1707523803
264,saint-francois,46.4154,3.9054,281.29,93,0,1.54,FR,1707523804
265,kolokani,13.5728,-8.0339,297.23,11,55,3.42,ML,1707523804
266,sen monorom,12.45,107.2,292.22,76,10,4.98,KH,1707523804
267,richards bay,-28.783,32.0377,298.13,68,97,1.48,ZA,1707523804
268,kholmsk,47.0511,142.0569,263.86,92,95,2.86,RU,1707523805
269,vanimo,-2.6741,141.3028,300.18,79,100,0.67,PG,1707523810
270,san julian,21.0167,-102.1667,296.06,13,48,4.98,MX,1707523811
271,saudarkrokur,65.7461,-19.6394,263.23,77,100,3.27,IS,1707523812
272,al hazm,16.1641,44.7769,292.36,41,3,1.08,YE,1707523813
273,kodiak,57.79,-152.4072,276.88,87,100,8.23,US,1707523564
274,yatou,37.15,122.3833,272.76,80,7,1.47,CN,1707523816
275,udachny,66.4167,112.4,239.51,74,98,1.23,RU,1707523817
276,nkowakowa,-23.8878,30.2871,294.66,93,34,1.63,ZA,1707523817
277,hualien city,23.9769,121.6044,288.03,85,96,4.67,TW,1707523820
278,santo antonio,-6.3106,-35.4789,298.87,85,65,3.04,BR,1707523821
279,prosser,46.2068,-119.7689,284.33,48,34,0.89,US,1707523822
280,naracoorte,-36.9579,140.7383,293.96,37,12,5.1,AU,1707523822
281,ormara,25.2088,64.6357,294.04,72,0,4.5,PK,1707523822
282,bandon,51.7469,-8.7425,280.92,90,21,7.7,IE,1707523824
283,namibe,-15.1961,12.1522,297.18,82,100,2.41,AO,1707523828
284,zaozersk,69.4005,32.4476,257.4,92,100,2.01,RU,1707523829
285,manicore,-5.8092,-61.3003,298.42,84,99,1.04,BR,1707523691
286,mar del plata,-38.0023,-57.5575,295.42,96,100,6.17,AR,1707523622
287,oranjemund,-28.55,16.4333,290.84,91,7,6.55,NA,1707523831
288,puerto carreno,6.189,-67.4859,299.68,78,60,2.42,CO,1707523832
289,hirna,9.2167,41.1,291.5,64,44,1.99,ET,1707523832
290,talara,-4.5772,-81.2719,299.57,89,75,3.6,PE,1707523832
291,bondo,3.8146,23.6866,296.08,37,12,1.43,CD,1707523833
292,sao jose da coroa grande,-8.8978,-35.1478,300.74,77,50,5.72,BR,1707523833
293,quellon,-43.1167,-73.6167,286.1,82,82,3.1,CL,1707523834
294,saint-joseph,-21.3667,55.6167,298.36,82,100,6.38,RE,1707523834
295,canelones,-34.6444,-56.2886,303.51,50,100,10.55,UY,1707523636
296,saint-philippe,-21.3585,55.7679,298.92,83,100,6.78,RE,1707523835
297,magdagachi,53.45,125.8,246.08,100,37,0.61,RU,1707523835
298,sisimiut,66.9395,-53.6735,256.38,90,100,4.65,GL,1707523836
299,enewetak,11.3474,162.3373,299.69,82,98,10.04,MH,1707523836
300,pochep,52.9336,33.4464,263.89,95,100,2.33,RU,1707523836
301,isiro,2.7739,27.616,294.03,48,12,0.41,CD,1707523837
302,ivdel',60.6911,60.4206,264.28,95,100,3.58,RU,1707523837
303,pocone,-16.2567,-56.6228,300.16,73,79,1.17,BR,1707523837
304,holualoa,19.6228,-155.9522,297.35,75,40,4.12,US,1707523838
305,nikolayevsk-on-amure,53.1406,140.73,256.15,94,82,1.27,RU,1707523838
306,madinat ash shamal,26.1293,51.2009,290.77,66,50,2.93,QA,1707523839
307,kerema,-7.9631,145.7785,301.55,68,100,0.26,PG,1707523839
308,jogeva,58.7467,26.3939,256.42,97,8,1.12,EE,1707523840
309,las heras,-46.5419,-68.9359,295.6,29,6,6.68,AR,1707523840
310,nahavand,34.1885,48.377,276.06,58,100,1.45,IR,1707523840
311,hanzhong,33.0728,107.0303,277.6,78,5,0.94,CN,1707523840
312,fortuna,40.5982,-124.1573,284.25,75,100,4.12,US,1707523841
313,stuttgart,48.7823,9.177,283.43,94,100,1.03,DE,1707523841
314,al bawiti,28.3492,28.8659,284.73,39,3,1.76,EG,1707523639
315,bayanhongor,46.7167,100.1167,250.92,77,12,1.57,MN,1707523842
316,kapit,2.0167,112.9333,296.83,98,100,0.41,MY,1707523765
317,nova sintra,14.8667,-24.7167,294.32,70,0,7.64,CV,1707523842
318,uttar char fasson,22.2332,90.7132,289.47,57,7,4.17,BD,1707523843
319,guozhen,34.3659,107.359,276.17,55,5,2.34,CN,1707523843
320,villa gesell,-37.2639,-56.973,296.51,94,100,7.34,AR,1707523844
321,black river,18.0264,-77.8487,296.69,68,3,1.19,JM,1707523844
322,constantia,44.1833,28.65,280.76,78,71,3.61,RO,1707523845
323,naze,28.3667,129.4833,286.58,55,98,5.27,JP,1707523845
324,karukh,34.4811,62.5863,279.29,33,0,0.9,AF,1707523846
325,kismayo,-0.3582,42.5454,300.09,84,51,6.88,SO,1707523846
326,nouadhibou,20.931,-17.0347,292.81,68,25,6.78,MR,1707523847
327,crane,31.3974,-102.3501,289.7,21,100,2.23,US,1707523848
328,palmer,42.1584,-72.3287,280.49,68,75,4.12,US,1707523804
329,mahina,-17.5065,-149.489,301.9,94,75,8.23,PF,1707523848
330,bontang,0.1333,117.5,297.85,93,100,2.55,ID,1707523849
331,fort st. john,56.2499,-120.8529,267.96,79,59,1.53,CA,1707523849
332,mikhaylovskoye,51.8239,79.7172,275.59,68,100,12.32,RU,1707523850
333,bredy,52.4153,60.3411,256.29,90,10,6.3,RU,1707523850
334,port alfred,-33.5906,26.891,292.14,78,66,3.58,ZA,1707523850
335,athi river,-1.4507,36.9824,291.86,88,20,3.09,KE,1707523850
336,lepsy,46.235,78.9456,271.54,81,63,3.65,KZ,1707523850
337,diapaga,12.0708,1.7889,297.18,11,14,2.95,BF,1707523851
338,malabar,-33.9667,151.25,296.84,68,75,9.26,AU,1707523851
339,varna,43.2167,27.9167,281.23,87,86,1.54,BG,1707523851
340,nar'yan-mar,67.6713,53.087,253.77,90,62,5.36,RU,1707523851
341,kailua-kona,19.6406,-155.9956,299.42,75,40,4.12,US,1707523851
342,zarand,30.8127,56.564,279.4,22,5,0.27,IR,1707523852
343,chimore,-16.9833,-65.1333,297.78,95,80,0.17,BO,1707523852
344,flin flon,54.7682,-101.865,262.37,96,100,1.06,CA,1707523852
345,bakchar,57.0186,82.0711,270.73,98,100,1.26,RU,1707523852
346,iguape,-24.7081,-47.5553,298.68,92,98,5.25,BR,1707523852
347,villa emilio carranza,19.9667,-96.6,296.46,86,13,4.87,MX,1707523853
348,jiuquan,39.7432,98.5174,270.68,40,0,3.04,CN,1707523853
349,south hedland,-20.4089,118.5983,305.11,51,0,4.12,AU,1707523853
350,abeche,13.8292,20.8324,293.95,13,13,3.14,TD,1707523853
351,gombi,10.1614,12.7399,293.03,25,3,1.72,NG,1707523853
352,bengkulu,-3.8004,102.2655,297.72,91,99,1.65,ID,1707523854
353,pavlovsk,50.4578,40.1081,269.78,90,100,1.67,RU,1707523854
354,lompoc,34.6391,-120.4579,289.83,59,0,7.2,US,1707523854
355,fredericton,45.9454,-66.6656,274.27,80,100,2.48,CA,1707523685
356,baker city,44.7749,-117.8344,276.99,62,100,8.23,US,1707523736
357,moramanga,-18.9333,48.2,293.09,99,100,0.59,MG,1707523855
358,namie,37.4833,141.0,277.91,72,10,1.56,JP,1707523855
359,sabang,5.8933,95.3214,301.83,72,61,8.67,ID,1707523855
360,tocopilla,-22.092,-70.1979,296.69,77,5,6.86,CL,1707523855
361,aswan,24.0934,32.907,288.91,33,1,4.42,EG,1707523856
362,polyarnyy,69.1989,33.4478,258.38,89,100,2.79,RU,1707523856
363,kiama,-34.6833,150.8667,296.8,72,62,0.89,AU,1707523856
364,praia da vitoria,38.7333,-27.0667,286.9,86,100,0.67,PT,1707523856
365,hammerfest,70.6634,23.6821,265.4,73,33,5.14,NO,1707523856
366,howrah,22.5892,88.3103,287.15,77,1,1.54,IN,1707523857
367,westport,41.1415,-73.3579,281.1,83,0,3.09,US,1707523770
368,manta,-0.95,-80.7333,300.03,83,40,6.71,EC,1707523779
369,siracusa,37.0881,15.2792,289.8,56,98,5.59,IT,1707523857
370,nelson,-41.2833,173.2833,296.64,64,29,0.45,NZ,1707523674
371,lerwick,60.1545,-1.1494,275.15,58,100,8.55,GB,1707523857
372,birobidzhan,48.8,132.95,251.94,89,6,1.27,RU,1707523858
373,atherton,53.5237,-2.4935,281.64,96,93,0.98,GB,1707523858
374,puttur,12.7667,75.2167,298.21,88,77,1.58,IN,1707523858
375,zhongxiang,31.1661,112.5831,276.8,93,0,2.29,CN,1707523858
376,kitui,-1.367,38.0106,293.13,73,7,2.36,KE,1707523858
377,daru,-9.0763,143.2092,302.07,72,55,1.91,PG,1707523859
378,owando,-0.4819,15.8999,297.2,84,91,1.95,CG,1707523859
379,uacu cungo,-11.3634,15.1208,290.57,94,72,0.33,AO,1707523859
380,bristol,41.8334,-71.1662,278.96,77,0,1.34,US,1707523793
381,zonguldak,41.25,31.8333,280.25,72,23,2.38,TR,1707523580
382,remire-montjoly,4.9167,-52.2667,300.17,83,0,1.03,GF,1707523860
383,easton,40.6884,-75.2207,283.46,67,0,0.0,US,1707523682
384,bikenibeu village,1.3673,173.1241,300.96,78,100,3.84,KI,1707523860
385,yerofey pavlovich,53.9667,121.9667,247.16,99,28,0.98,RU,1707523861
386,cabedelo,-6.9811,-34.8339,301.52,82,81,4.16,BR,1707523861
387,bireun,5.203,96.7009,298.41,78,3,3.35,ID,1707523861
388,port-vila,-17.7338,168.3219,301.84,84,100,4.13,VU,1707523861
389,lib,8.3122,167.3766,299.99,75,100,10.66,MH,1707523861
390,hopelchen,19.7667,-89.85,299.98,49,3,3.84,MX,1707523861
391,strelka,58.0728,93.0344,272.79,97,100,2.98,RU,1707523862
392,yuncheng,35.0231,110.9928,276.31,63,60,1.24,CN,1707523862
393,at taj,24.2049,23.2857,285.37,32,0,3.25,LY,1707523862
394,terbanggi besar,-4.8667,105.2333,298.4,90,97,1.31,ID,1707523862
395,wotho,10.1657,166.0102,299.42,75,100,10.43,MH,1707523863
396,borogontsy,62.6683,131.1683,235.09,98,96,1.71,RU,1707523863
397,whitby,54.4877,-0.615,281.01,96,100,1.56,GB,1707523863
398,obanazawa,38.6033,140.4019,274.98,72,53,2.36,JP,1707523863
399,al jawf,29.5,38.75,285.08,46,28,4.54,SA,1707523864
400,corner brook,48.9667,-57.9484,260.52,99,49,1.17,CA,1707523864
401,dalandzadgad,43.5708,104.425,259.1,70,1,1.07,MN,1707523864
402,shenyang,41.7922,123.4328,255.16,85,5,1.0,CN,1707523864
403,namtsy,62.7161,129.6658,236.72,99,99,0.99,RU,1707523864
404,igrim,63.1906,64.4162,258.67,92,100,5.21,RU,1707523865
405,fort bragg,35.139,-79.006,287.54,79,100,0.0,US,1707523865
406,vila velha,-20.3297,-40.2925,298.12,92,20,2.06,BR,1707523865
407,pikalevo,59.5183,34.1664,251.06,100,98,0.97,RU,1707523865
408,pokaran,26.9167,71.9167,288.03,23,0,3.48,IN,1707523865
409,kolonia,50.9333,6.95,285.14,90,20,3.6,DE,1707523646
410,dwarka,22.2394,68.9678,293.91,40,0,5.25,IN,1707523866
411,dunedin,-45.8742,170.5036,285.82,88,91,5.36,NZ,1707523866
412,tahe,52.3333,124.7333,252.71,100,87,1.46,CN,1707523866
413,arroyo,41.6096,-4.7969,282.16,75,75,7.2,ES,1707523867
414,satipo,-11.2522,-74.6386,294.8,97,93,2.7,PE,1707523867
415,mount pearl,47.5166,-52.7813,270.84,94,100,7.2,CA,1707523867
416,marquette,46.5333,-87.6335,274.72,81,99,4.47,US,1707523867
417,west plains,36.7281,-91.8524,292.61,39,0,3.6,US,1707523868
418,saint-denis,48.9167,2.3333,283.75,88,100,3.09,FR,1707523868
419,alapayevsk,57.8516,61.6963,257.44,93,98,4.89,RU,1707523868
420,kuta,-8.7233,115.1723,300.12,94,20,3.13,ID,1707523868
421,baracoa,20.3467,-74.4958,295.88,73,20,4.73,CU,1707523869
422,kolobrzeg,54.1757,15.5834,275.35,90,100,7.05,PL,1707523869
423,floro,61.5996,5.0328,271.13,46,88,7.72,NO,1707523870
424,mili,6.0815,171.735,300.51,84,100,11.23,MH,1707523870
425,ginir,7.1333,40.7,288.89,60,2,1.73,ET,1707523870
426,mahibadhoo,3.7833,72.9667,300.97,73,83,7.42,MV,1707523871
427,chinde,26.8418,88.0763,280.92,50,0,1.98,NP,1707523871
428,okhotsk,59.3833,143.3,245.39,79,42,3.86,RU,1707523871
429,newman,37.3138,-121.0208,286.28,69,81,3.13,US,1707523871
430,ippy,6.2679,21.2247,298.06,25,2,2.22,CF,1707523872
431,mont-dore,-22.2833,166.5833,302.14,99,79,5.46,NC,1707523872
432,sebdou,34.637,-1.3314,282.76,84,100,6.53,DZ,1707523872
433,plastun,44.7561,136.2939,266.3,61,100,2.27,RU,1707523872
434,isangel,-19.55,169.2667,299.31,93,100,6.1,VU,1707523872
435,faya-largeau,17.9257,19.1043,291.41,18,0,5.46,TD,1707523873
436,wewak,-3.5534,143.6268,299.34,89,100,3.73,PG,1707523873
437,ingeniero jacobacci,-41.3427,-69.5448,291.57,68,87,8.68,AR,1707523873
438,uirauna,-6.5183,-38.4122,297.0,90,88,4.28,BR,1707523874
439,stornoway,58.2093,-6.3865,277.13,79,100,9.77,GB,1707523874
440,taquara,-29.6506,-50.7806,301.34,97,51,1.67,BR,1707523874
441,arteche,12.2645,125.4048,299.54,75,15,5.14,PH,1707523875
442,magadan,59.5667,150.8,246.81,78,15,2.82,RU,1707523875
443,tarawa,1.419,172.984,301.02,78,100,4.6,KI,1707523875
444,champerico,14.3,-91.9167,299.92,61,0,3.3,GT,1707523875
445,acarau,-2.8856,-40.12,300.13,82,58,5.82,BR,1707523876
446,anloga,5.7947,0.8973,299.99,86,6,3.2,GH,1707523876
447,constitucion,-35.3333,-72.4167,287.77,88,8,4.03,CL,1707523876
448,gardez,33.5974,69.2259,268.27,59,0,1.84,AF,1707523876
449,beyneu,45.3167,55.2,277.41,91,37,3.84,KZ,1707523877
450,vershino-darasunskiy,52.35,115.5167,253.58,99,86,0.85,RU,1707523877
451,babadag,44.9,28.7167,286.08,50,20,3.6,RO,1707523877
452,rakops,-21.0167,24.3333,301.75,39,85,2.59,BW,1707523877
453,yuzawa,39.1667,140.5,274.37,73,56,1.29,JP,1707523878
454,chaoyang,41.5703,120.4586,266.68,52,1,2.02,CN,1707523878
455,buka,40.8108,69.1986,281.04,46,72,1.75,UZ,1707523878
456,tanout,14.9709,8.8879,291.13,13,4,4.8,NE,1707523878
457,prince george,53.9166,-122.753,271.07,71,100,0.82,CA,1707523879
458,cangzhou,38.3167,116.8667,271.93,43,0,2.63,CN,1707523879
459,santo antonio do monte,-20.0872,-45.2936,294.16,75,32,3.3,BR,1707523879
460,cabanglasan,8.1214,125.3275,295.56,88,77,1.46,PH,1707523880
461,safford,32.834,-109.7076,285.66,40,0,5.14,US,1707523880
462,harlingen,26.1906,-97.6961,298.18,81,75,7.2,US,1707523784
463,qamdo,31.1667,97.2333,257.5,42,0,1.6,CN,1707523881
464,alliston,44.1501,-79.8663,285.28,65,52,5.94,CA,1707523881
465,kokoda,-8.8785,147.7407,304.97,63,99,1.17,PG,1707523881
466,solleftea,63.1667,17.2667,255.07,100,98,0.6,SE,1707523881
467,mossel bay,-34.1831,22.146,291.27,82,31,5.26,ZA,1707523882
468,grojec,51.8625,20.8676,276.12,89,100,2.05,PL,1707523882
469,east ballina,-28.8667,153.5833,298.04,78,100,6.84,AU,1707523882
470,tulun,54.5611,100.5792,268.34,84,100,2.21,RU,1707523883
471,tuy hoa,13.0833,109.3,295.47,85,100,4.42,VN,1707523883
472,katabu,-4.9333,122.5167,301.35,76,46,1.98,ID,1707523883
473,argo,37.6333,22.7333,283.59,60,38,1.97,GR,1707523883
474,choibalsan,48.0667,114.5,255.4,83,48,3.4,MN,1707523884
475,bali,-8.5,115.0,299.69,82,40,1.11,ID,1707523884
476,sereflikochisar,38.9393,33.5386,280.84,68,10,3.23,TR,1707523884
477,ouadda,8.0777,22.4007,294.41,31,1,1.31,CF,1707523884
478,central,30.5544,-91.0368,296.16,67,100,3.6,US,1707523884
479,nadym,65.5333,72.5167,254.31,97,100,6.41,RU,1707523885
480,seydi,39.4816,62.9137,283.22,38,89,1.32,TM,1707523885
481,hastings,50.8552,0.5729,284.01,95,97,5.99,GB,1707523885
482,nuriootpa,-34.4833,139.0,297.4,40,0,5.76,AU,1707523885
483,agadez,19.75,10.25,287.47,19,59,0.57,NE,1707523886
484,terenozek,45.05,64.9833,277.18,82,61,3.47,KZ,1707523886
485,nova vicosa,-17.8919,-39.3719,295.15,97,34,1.47,BR,1707523886
486,seosan,36.7817,126.4522,276.61,64,19,3.64,KR,1707523886
487,pemba,-12.974,40.5178,297.65,94,78,2.42,MZ,1707523886
488,puerto aysen,-45.4,-72.7,289.79,89,34,0.97,CL,1707523887
489,sovetskiy,61.3614,63.5842,261.42,93,100,4.02,RU,1707523887
490,salem,11.65,78.1667,293.06,89,78,1.08,IN,1707523611
491,bocsa,45.3733,21.7092,285.77,64,100,5.47,RO,1707523887
492,santa terezinha,-29.9002,-50.0904,297.85,97,45,2.88,BR,1707523888
493,beaudesert,-27.9833,152.9833,300.98,83,98,2.74,AU,1707523644
494,basco,20.4487,121.9702,295.17,76,88,8.48,PH,1707523888
495,taksimo,56.3444,114.8794,255.43,99,100,1.04,RU,1707523888
496,andovoranto,-18.95,49.1,297.58,97,100,2.11,MG,1707523888
497,mhamid,29.82,-5.72,290.51,61,99,10.22,MA,1707523889
498,kiunga,-6.1219,141.2906,300.55,80,100,0.3,PG,1707523889
499,kununurra,-15.7667,128.7333,303.14,66,71,1.03,AU,1707523659
500,urucui,-7.2294,-44.5561,298.48,88,99,1.68,BR,1707523889
501,metlili chaamba,32.2667,3.6333,290.41,28,100,8.93,DZ,1707523890
502,urangan,-25.3,152.9,302.7,65,10,4.92,AU,1707523890
503,markaz-e hukumat-e darweshan,31.1323,64.1934,285.07,29,0,3.45,AF,1707523881
504,sur,22.5667,59.5289,293.5,69,0,0.99,OM,1707523890
505,sinop,41.7711,34.8709,281.22,75,9,4.59,TR,1707523890
506,igarka,67.4667,86.5833,257.34,83,99,5.79,RU,1707523891
507,berdigestyakh,62.0989,126.6992,244.02,99,100,1.17,RU,1707523891
508,el nido,11.1858,119.3956,299.84,74,60,2.66,PH,1707523891
509,kenai,60.5544,-151.2583,275.2,79,75,9.77,US,1707523891
510,suva,-18.1416,178.4415,301.78,68,100,1.93,FJ,1707523891
511,lakheri,25.6667,76.1667,284.07,36,0,2.02,IN,1707523892
512,lockwood,45.8191,-108.4149,273.94,79,100,6.69,US,1707523892
513,bandarbeyla,9.4942,50.8122,298.32,76,57,7.47,SO,1707523892
514,cadale,2.7603,46.3222,299.22,85,49,9.91,SO,1707523892
515,aktau,43.65,51.2,275.47,78,5,4.28,KZ,1707523893
516,akureyri,65.6835,-18.0878,261.81,91,100,2.49,IS,1707523893
517,goz beida,13.95,20.55,293.09,13,3,3.36,TD,1707523893
518,roswell,34.0232,-84.3616,288.46,77,0,1.03,US,1707523894
519,brisas de zicatela,15.8369,-97.0419,300.44,74,75,4.12,MX,1707523894
520,ambalangoda,6.2355,80.0538,297.09,87,57,2.77,LK,1707523687
521,usogorsk,63.4106,48.6872,251.85,100,95,1.72,RU,1707523894
522,tsiombe,-25.3,45.4833,296.81,86,1,2.33,MG,1707523894
523,egilsstadir,65.2653,-14.3948,262.97,93,100,1.74,IS,1707523895
524,mahdia,35.5047,11.0622,292.12,38,98,8.81,TN,1707523895
525,sitia,35.2,26.0986,287.03,80,0,4.08,GR,1707523895
526,shalqar,47.8333,59.6,269.23,63,100,2.34,KZ,1707523895
527,kastsyukovichy,53.3516,32.0506,264.83,95,100,2.91,BY,1707523895
528,tutoia,-2.7619,-42.2744,300.69,81,89,6.1,BR,1707523896
529,gore,-46.1028,168.9436,284.08,90,100,2.91,NZ,1707523896
530,tegueste,28.5167,-16.3167,292.04,97,100,11.32,ES,1707523896
531,rikaze,29.25,88.8833,266.38,18,0,0.43,CN,1707523896
532,xining,36.6167,101.7667,263.04,57,0,1.27,CN,1707523896
533,dumai,1.6833,101.45,295.1,91,100,1.47,ID,1707523896
534,monrovia,6.3005,-10.7969,300.29,86,69,3.24,LR,1707523897
535,bamboo flat,11.7,92.7167,294.2,100,20,0.51,IN,1707523897
536,tokar,18.4254,37.729,296.26,78,7,3.28,SD,1707523897
537,northam,51.0333,-4.2167,282.4,97,88,4.36,GB,1707523897
538,gumushacikoy,40.8731,35.2147,273.33,76,6,1.92,TR,1707523898
539,qashar,53.3906,62.9297,257.03,87,29,5.91,KZ,1707523898
